<?xml version="1.0" encoding="utf-8"?>
<markers>
	<marker name="Restoration Hardware" retailers="1,2,3,4,5,6,7" lat="33.9269837" lng=" -84.34289009999998" type="Retail" address="120 Perimeter Center West, Suite 200" address2="" city="Atlanta" state="GA" postal="30346" phone="770-804-9040" web="http://www.restorationhardware.com" hours1="Mon-Sun 11am-10pm" hours2="" hours3="" />
	<marker name="Rooms To Go" retailers="1,2,3,4,5,6,7" lat="33.532237" lng="-86.791992" type="Retail" address="5480 Excelsior Blvd." address2="" city="St. Louis Park" state="AL" postal="55416" phone="952-922-1970" web="http://www.roomstogo.com/" hours1="Mon-Sun 11am-10pm" hours2="" hours3="" />
	<marker name="Restoration Hardware" retailers="1,2,3,4,5,6,7" lat="36.155618" lng="-86.791992" type="Retail" address="5480 Excelsior Blvd." address2="" city="St. Louis Park" state="AL" postal="55416" phone="952-922-1970" web="http://www.havertys.com/" hours1="Mon-Sun 11am-10pm" hours2="" hours3="" />
	<marker name="Havertys" retailers="1,2,3,4,5,6,7" lat="35.986896" lng="-83.946533" type="Retail" address="5480 Excelsior Blvd." address2="" city="St. Louis Park" state="AL" postal="55416" phone="952-922-1970" web="http://www.havertys.com/" hours1="Mon-Sun 11am-10pm" hours2="" hours3="" />
	<marker name="Havertys" retailers="1,2,3,4,5,6,7" lat="33.998027" lng="-81.013184" type="Retail" address="5480 Excelsior Blvd." address2="" city="St. Louis Park" state="AL" postal="55416" phone="952-922-1970" web="http://www.havertys.com/" hours1="Mon-Sun 11am-10pm" hours2="" hours3="" />
	<marker name="Havertys" retailers="1,2,3,4,5,6,7" lat="30.353916" lng="-81.650391" type="Retail" address="5480 Excelsior Blvd." address2="" city="St. Louis Park" state="AL" postal="55416" phone="952-922-1970" web="http://www.havertys.com/" hours1="Mon-Sun 11am-10pm" hours2="" hours3="" />
	<marker name="Havertys" retailers="1,2,3,4,5,6,7" lat="28.497661" lng="-81.430664" type="Retail" address="5480 Excelsior Blvd." address2="" city="St. Louis Park" state="AL" postal="55416" phone="952-922-1970" web="http://www.havertys.com/" hours1="Mon-Sun 11am-10pm" hours2="" hours3="" />
	<marker name="Havertys" retailers="1,2,3,4,5,6,7" lat="27.955591" lng="-82.441406" type="Retail" address="5480 Excelsior Blvd." address2="" city="St. Louis Park" state="AL" postal="55416" phone="952-922-1970" web="http://www.havertys.com/" hours1="Mon-Sun 11am-10pm" hours2="" hours3="" />
	<marker name="Havertys" retailers="1,2,3,4,5,6,7" lat="25.799891" lng="-80.222168" type="Retail" address="5480 Excelsior Blvd." address2="" city="St. Louis Park" state="AL" postal="55416" phone="952-922-1970" web="http://www.havertys.com/" hours1="Mon-Sun 11am-10pm" hours2="" hours3="" />
	<marker name="Restoration Hardware" retailers="1,2,3,4,5,6,7" lat="35.817813" lng="-78.684082" type="Retail" address="5480 Excelsior Blvd." address2="" city="St. Louis Park" state="AL" postal="55416" phone="952-922-1970" web="http://www.restohw.com/" hours1="Mon-Sun 11am-10pm" hours2="" hours3="" />
	<marker name="Havertys" retailers="1,2,3,4,5,6,7" lat="32.324276" lng="-90.131836" type="Retail" address="5480 Excelsior Blvd." address2="" city="St. Louis Park" state="AL" postal="55416" phone="952-922-1970" web="http://www.havertys.com/" hours1="Mon-Sun 11am-10pm" hours2="" hours3="" />
	<marker name="Rooms To Go" retailers="1,2,3,4,5,6,7" lat="34.524661" lng="-92.241211" type="Retail" address="5480 Excelsior Blvd." address2="" city="St. Louis Park" state="AL" postal="55416" phone="952-922-1970" web="http://www.havertys.com/" hours1="Mon-Sun 11am-10pm" hours2="" hours3="" />
	<marker name="Havertys" retailers="1,2,3,4,5,6,7" lat="32.324276" lng="-90.131836" type="Retail" address="5480 Excelsior Blvd." address2="" city="St. Louis Park" state="AL" postal="55416" phone="952-922-1970" web="http://www.havertys.com/" hours1="Mon-Sun 11am-10pm" hours2="" hours3="" />
	<marker name="Target" retailers="1,2,3,4,5,6,7" lat="38.993572" lng="-92.241211" type="Retail" address="5480 Excelsior Blvd." address2="" city="St. Louis Park" state="AL" postal="55416" phone="952-922-1970" web="http://www.target.com/" hours1="Mon-Sun 11am-10pm" hours2="" hours3="" />
	<marker name="Rooms To Go" retailers="1,2,3,4,5,6,7" lat="32.842674" lng="-96.767578" type="Retail" address="5480 Excelsior Blvd." address2="" city="St. Louis Park" state="AL" postal="55416" phone="952-922-1970" web="http://www.roomstogo.com/" hours1="Mon-Sun 11am-10pm" hours2="" hours3="" />
	<marker name="Echo" retailers="1,2,3,4,5,6,7" lat="38.272689" lng="-85.693359" type="Retail" address="5480 Excelsior Blvd." address2="" city="St. Louis Park" state="AL" postal="55416" phone="952-922-1970" web="http://www.havertys.com/" hours1="Mon-Sun 11am-10pm" hours2="" hours3="" />
	<marker name="Havertys" retailers="1,2,3,4,5,6,7" lat="37.71859" lng="-97.338867" type="Retail" address="5480 Excelsior Blvd." address2="" city="St. Louis Park" state="AL" postal="55416" phone="952-922-1970" web="http://www.havertys.com/" hours1="Mon-Sun 11am-10pm" hours2="" hours3="" />
	<marker name="Havertys" retailers="1,2,3,4,5,6,7" lat="35.96189" lng="-80.004845" type="Retail" address="5480 Excelsior Blvd." address2="" city="St. Louis Park" state="AL" postal="55416" phone="952-922-1970" web="http://www.havertys.com/" hours1="Mon-Sun 11am-10pm" hours2="" hours3="" />
	
</markers>